[
  {
    "id": 1,
    "name": "Jollibee - Manila",
    "category": "Food",
    "lat": 14.5995,
    "lng": 120.9842,
    "address": "Ermita, Manila",
    "province": "Metro Manila",
    "barangay": "Ermita",
    "notes": "Jollibee popular branch in Manila"
  },
  {
    "id": 2,
    "name": "Jollibee - Pampanga",
    "category": "Food",
    "lat": 15.0794,
    "lng": 120.6192,
    "address": "San Fernando, Pampanga",
    "province": "Pampanga",
    "barangay": "San Fernando",
    "notes": "Jollibee popular branch in Pampanga"
  },
  {
    "id": 3,
    "name": "Jollibee - Cebu",
    "category": "Food",
    "lat": 10.3157,
    "lng": 123.8854,
    "address": "Cebu City",
    "province": "Cebu",
    "barangay": "Lahug",
    "notes": "Jollibee popular branch in Cebu"
  },
  {
    "id": 4,
    "name": "Jollibee - Davao",
    "category": "Food",
    "lat": 7.1907,
    "lng": 125.4553,
    "address": "Davao City",
    "province": "Davao del Sur",
    "barangay": "Poblacion",
    "notes": "Jollibee popular branch in Davao"
  },
  {
    "id": 5,
    "name": "McDonald's - Makati",
    "category": "Food",
    "lat": 14.5547,
    "lng": 121.0244,
    "address": "Ayala Ave, Makati",
    "province": "Metro Manila",
    "barangay": "Bel-Air",
    "notes": "McDonald's popular branch in Makati"
  },
  {
    "id": 6,
    "name": "McDonald's - Pampanga",
    "category": "Food",
    "lat": 15.0342,
    "lng": 120.6844,
    "address": "Angeles City",
    "province": "Pampanga",
    "barangay": "Balibago",
    "notes": "McDonald's popular branch in Pampanga"
  },
  {
    "id": 7,
    "name": "McDonald's - Cebu",
    "category": "Food",
    "lat": 10.3118,
    "lng": 123.918,
    "address": "SM Cebu",
    "province": "Cebu",
    "barangay": "Mabolo",
    "notes": "McDonald's popular branch in Cebu"
  },
  {
    "id": 8,
    "name": "McDonald's - Davao",
    "category": "Food",
    "lat": 7.0731,
    "lng": 125.6131,
    "address": "Toril, Davao",
    "province": "Davao del Sur",
    "barangay": "Toril",
    "notes": "McDonald's popular branch in Davao"
  },
  {
    "id": 9,
    "name": "Chowking - Manila",
    "category": "Food",
    "lat": 14.6006,
    "lng": 120.982,
    "address": "Quiapo, Manila",
    "province": "Metro Manila",
    "barangay": "Quiapo",
    "notes": "Chowking popular branch in Manila"
  },
  {
    "id": 10,
    "name": "Chowking - Quezon City",
    "category": "Food",
    "lat": 14.6519,
    "lng": 121.0496,
    "address": "Cubao, QC",
    "province": "Metro Manila",
    "barangay": "Cubao",
    "notes": "Chowking popular branch in Quezon City"
  },
  {
    "id": 11,
    "name": "Chowking - Cebu",
    "category": "Food",
    "lat": 10.3123,
    "lng": 123.9156,
    "address": "Fuente Osmena, Cebu",
    "province": "Cebu",
    "barangay": "Fuente",
    "notes": "Chowking popular branch in Cebu"
  },
  {
    "id": 12,
    "name": "Chowking - Davao",
    "category": "Food",
    "lat": 7.0855,
    "lng": 125.6095,
    "address": "Matina, Davao",
    "province": "Davao del Sur",
    "barangay": "Matina",
    "notes": "Chowking popular branch in Davao"
  },
  {
    "id": 13,
    "name": "KFC - Quezon City",
    "category": "Food",
    "lat": 14.652,
    "lng": 121.0323,
    "address": "SM North EDSA",
    "province": "Metro Manila",
    "barangay": "Bagong Pag-Asa",
    "notes": "KFC popular branch in Quezon City"
  },
  {
    "id": 14,
    "name": "KFC - Manila",
    "category": "Food",
    "lat": 14.5822,
    "lng": 120.9847,
    "address": "Robinsons Place Manila",
    "province": "Metro Manila",
    "barangay": "Malate",
    "notes": "KFC popular branch in Manila"
  },
  {
    "id": 15,
    "name": "KFC - Cebu",
    "category": "Food",
    "lat": 10.3255,
    "lng": 123.9043,
    "address": "Ayala Center Cebu",
    "province": "Cebu",
    "barangay": "Lahug",
    "notes": "KFC popular branch in Cebu"
  },
  {
    "id": 16,
    "name": "KFC - Davao",
    "category": "Food",
    "lat": 7.066,
    "lng": 125.6078,
    "address": "SM Davao",
    "province": "Davao del Sur",
    "barangay": "Ecoland",
    "notes": "KFC popular branch in Davao"
  },
  {
    "id": 17,
    "name": "Mang Inasal - Pampanga",
    "category": "Food",
    "lat": 15.0765,
    "lng": 120.6572,
    "address": "SM Pampanga",
    "province": "Pampanga",
    "barangay": "San Fernando",
    "notes": "Mang Inasal popular branch in Pampanga"
  },
  {
    "id": 18,
    "name": "Mang Inasal - Manila",
    "category": "Food",
    "lat": 14.6042,
    "lng": 120.9822,
    "address": "Quiapo, Manila",
    "province": "Metro Manila",
    "barangay": "Quiapo",
    "notes": "Mang Inasal popular branch in Manila"
  },
  {
    "id": 19,
    "name": "Mang Inasal - Cebu",
    "category": "Food",
    "lat": 10.3119,
    "lng": 123.9184,
    "address": "Colon St, Cebu",
    "province": "Cebu",
    "barangay": "Colon",
    "notes": "Mang Inasal popular branch in Cebu"
  },
  {
    "id": 20,
    "name": "Mang Inasal - Davao",
    "category": "Food",
    "lat": 7.071,
    "lng": 125.6099,
    "address": "Roxas Ave, Davao",
    "province": "Davao del Sur",
    "barangay": "Poblacion",
    "notes": "Mang Inasal popular branch in Davao"
  },
  {
    "id": 21,
    "name": "Starbucks - BGC",
    "category": "Food",
    "lat": 14.5539,
    "lng": 121.0495,
    "address": "Bonifacio Global City",
    "province": "Metro Manila",
    "barangay": "Fort Bonifacio",
    "notes": "Starbucks popular branch in BGC"
  },
  {
    "id": 22,
    "name": "Starbucks - Makati",
    "category": "Food",
    "lat": 14.5543,
    "lng": 121.0173,
    "address": "Greenbelt 3",
    "province": "Metro Manila",
    "barangay": "San Lorenzo",
    "notes": "Starbucks popular branch in Makati"
  },
  {
    "id": 23,
    "name": "Starbucks - Cebu",
    "category": "Food",
    "lat": 10.3173,
    "lng": 123.9057,
    "address": "IT Park, Cebu",
    "province": "Cebu",
    "barangay": "Lahug",
    "notes": "Starbucks popular branch in Cebu"
  },
  {
    "id": 24,
    "name": "Starbucks - Davao",
    "category": "Food",
    "lat": 7.0739,
    "lng": 125.6121,
    "address": "Abreeza Mall, Davao",
    "province": "Davao del Sur",
    "barangay": "Bajada",
    "notes": "Starbucks popular branch in Davao"
  },
  {
    "id": 25,
    "name": "Tom N Toms - Pampanga",
    "category": "Food",
    "lat": 15.1715,
    "lng": 120.5908,
    "address": "Angeles City",
    "province": "Pampanga",
    "barangay": "Balibago",
    "notes": "Tom N Toms popular branch in Pampanga"
  },
  {
    "id": 26,
    "name": "Tom N Toms - Makati",
    "category": "Food",
    "lat": 14.5551,
    "lng": 121.0194,
    "address": "Poblacion, Makati",
    "province": "Metro Manila",
    "barangay": "Poblacion",
    "notes": "Tom N Toms popular branch in Makati"
  },
  {
    "id": 27,
    "name": "Tim Hortons - Makati",
    "category": "Food",
    "lat": 14.5535,
    "lng": 121.018,
    "address": "Ayala Ave, Makati",
    "province": "Metro Manila",
    "barangay": "San Lorenzo",
    "notes": "Tim Hortons popular branch in Makati"
  },
  {
    "id": 28,
    "name": "Tim Hortons - Quezon City",
    "category": "Food",
    "lat": 14.6515,
    "lng": 121.0499,
    "address": "Eastwood City",
    "province": "Metro Manila",
    "barangay": "Libis",
    "notes": "Tim Hortons popular branch in Quezon City"
  },
  {
    "id": 29,
    "name": "CBTL - Ortigas",
    "category": "Food",
    "lat": 14.5865,
    "lng": 121.0616,
    "address": "Ortigas Center",
    "province": "Metro Manila",
    "barangay": "San Antonio",
    "notes": "CBTL popular branch in Ortigas"
  },
  {
    "id": 30,
    "name": "CBTL - Cebu",
    "category": "Food",
    "lat": 10.3198,
    "lng": 123.9053,
    "address": "Ayala Center Cebu",
    "province": "Cebu",
    "barangay": "Lahug",
    "notes": "CBTL popular branch in Cebu"
  },
  {
    "id": 31,
    "name": "Bo's Coffee - Cebu",
    "category": "Food",
    "lat": 10.309,
    "lng": 123.893,
    "address": "Cebu IT Park",
    "province": "Cebu",
    "barangay": "Lahug",
    "notes": "Bo's Coffee popular branch in Cebu"
  },
  {
    "id": 32,
    "name": "Bo's Coffee - Davao",
    "category": "Food",
    "lat": 7.0652,
    "lng": 125.6102,
    "address": "Abreeza Mall",
    "province": "Davao del Sur",
    "barangay": "Bajada",
    "notes": "Bo's Coffee popular branch in Davao"
  },
  {
    "id": 33,
    "name": "Dunkin - Manila",
    "category": "Food",
    "lat": 14.5998,
    "lng": 120.9845,
    "address": "Quiapo, Manila",
    "province": "Metro Manila",
    "barangay": "Quiapo",
    "notes": "Dunkin popular branch in Manila"
  },
  {
    "id": 34,
    "name": "Dunkin - Cebu",
    "category": "Food",
    "lat": 10.3114,
    "lng": 123.9181,
    "address": "Colon St, Cebu",
    "province": "Cebu",
    "barangay": "Colon",
    "notes": "Dunkin popular branch in Cebu"
  },
  {
    "id": 35,
    "name": "Dunkin - Davao",
    "category": "Food",
    "lat": 7.1907,
    "lng": 125.4553,
    "address": "San Pedro St, Davao",
    "province": "Davao del Sur",
    "barangay": "Poblacion",
    "notes": "Dunkin popular branch in Davao"
  },
  {
    "id": 36,
    "name": "Tourist Spots - Rizal Park",
    "category": "Tourist Spot",
    "lat": 14.5826,
    "lng": 120.9796,
    "address": "Manila",
    "province": "Metro Manila",
    "barangay": "Ermita",
    "notes": "Tourist Spots popular branch in Rizal Park"
  },
  {
    "id": 37,
    "name": "Tourist Spots - Chocolate Hills",
    "category": "Tourist Spot",
    "lat": 9.822,
    "lng": 124.1454,
    "address": "Bohol",
    "province": "Bohol",
    "barangay": "Carmen",
    "notes": "Tourist Spots popular branch in Chocolate Hills"
  },
  {
    "id": 38,
    "name": "Tourist Spots - Mayon Volcano",
    "category": "Tourist Spot",
    "lat": 13.257,
    "lng": 123.6851,
    "address": "Albay",
    "province": "Bicol",
    "barangay": "Legazpi",
    "notes": "Tourist Spots popular branch in Mayon Volcano"
  },
  {
    "id": 39,
    "name": "Tourist Spots - Kawasan Falls",
    "category": "Tourist Spot",
    "lat": 9.8127,
    "lng": 123.3933,
    "address": "Cebu",
    "province": "Cebu",
    "barangay": "Badian",
    "notes": "Tourist Spots popular branch in Kawasan Falls"
  },
  {
    "id": 40,
    "name": "Tourist Spots - Siargao Cloud 9",
    "category": "Tourist Spot",
    "lat": 9.8485,
    "lng": 126.0707,
    "address": "Siargao",
    "province": "Surigao del Norte",
    "barangay": "General Luna",
    "notes": "Tourist Spots popular branch in Siargao Cloud 9"
  },
  {
    "id": 41,
    "name": "Jollibee - Manila Branch 41",
    "category": "Food",
    "lat": 14.6005,
    "lng": 120.9852,
    "address": "Ermita, Manila",
    "province": "Metro Manila",
    "barangay": "Ermita",
    "notes": "Jollibee popular branch in Manila"
  },
  {
    "id": 42,
    "name": "Jollibee - Manila Branch 42",
    "category": "Food",
    "lat": 14.601500000000001,
    "lng": 120.9862,
    "address": "Ermita, Manila",
    "province": "Metro Manila",
    "barangay": "Ermita",
    "notes": "Jollibee popular branch in Manila"
  },
  {
    "id": 43,
    "name": "Jollibee - Manila Branch 43",
    "category": "Food",
    "lat": 14.602500000000001,
    "lng": 120.9872,
    "address": "Ermita, Manila",
    "province": "Metro Manila",
    "barangay": "Ermita",
    "notes": "Jollibee popular branch in Manila"
  },
  {
    "id": 44,
    "name": "Jollibee - Manila Branch 44",
    "category": "Food",
    "lat": 14.6035,
    "lng": 120.9882,
    "address": "Ermita, Manila",
    "province": "Metro Manila",
    "barangay": "Ermita",
    "notes": "Jollibee popular branch in Manila"
  },
  {
    "id": 45,
    "name": "Jollibee - Manila Branch 45",
    "category": "Food",
    "lat": 14.5995,
    "lng": 120.9842,
    "address": "Ermita, Manila",
    "province": "Metro Manila",
    "barangay": "Ermita",
    "notes": "Jollibee popular branch in Manila"
  },
  {
    "id": 46,
    "name": "Jollibee - Manila Branch 46",
    "category": "Food",
    "lat": 14.6005,
    "lng": 120.9852,
    "address": "Ermita, Manila",
    "province": "Metro Manila",
    "barangay": "Ermita",
    "notes": "Jollibee popular branch in Manila"
  },
  {
    "id": 47,
    "name": "Jollibee - Manila Branch 47",
    "category": "Food",
    "lat": 14.601500000000001,
    "lng": 120.9862,
    "address": "Ermita, Manila",
    "province": "Metro Manila",
    "barangay": "Ermita",
    "notes": "Jollibee popular branch in Manila"
  },
  {
    "id": 48,
    "name": "Jollibee - Manila Branch 48",
    "category": "Food",
    "lat": 14.602500000000001,
    "lng": 120.9872,
    "address": "Ermita, Manila",
    "province": "Metro Manila",
    "barangay": "Ermita",
    "notes": "Jollibee popular branch in Manila"
  },
  {
    "id": 49,
    "name": "Jollibee - Manila Branch 49",
    "category": "Food",
    "lat": 14.6035,
    "lng": 120.9882,
    "address": "Ermita, Manila",
    "province": "Metro Manila",
    "barangay": "Ermita",
    "notes": "Jollibee popular branch in Manila"
  },
  {
    "id": 50,
    "name": "Jollibee - Manila Branch 50",
    "category": "Food",
    "lat": 14.5995,
    "lng": 120.9842,
    "address": "Ermita, Manila",
    "province": "Metro Manila",
    "barangay": "Ermita",
    "notes": "Jollibee popular branch in Manila"
  },
  {
    "id": 51,
    "name": "Jollibee - Manila Branch 51",
    "category": "Food",
    "lat": 14.6005,
    "lng": 120.9852,
    "address": "Ermita, Manila",
    "province": "Metro Manila",
    "barangay": "Ermita",
    "notes": "Jollibee popular branch in Manila"
  },
  {
    "id": 52,
    "name": "Jollibee - Manila Branch 52",
    "category": "Food",
    "lat": 14.601500000000001,
    "lng": 120.9862,
    "address": "Ermita, Manila",
    "province": "Metro Manila",
    "barangay": "Ermita",
    "notes": "Jollibee popular branch in Manila"
  },
  {
    "id": 53,
    "name": "Jollibee - Manila Branch 53",
    "category": "Food",
    "lat": 14.602500000000001,
    "lng": 120.9872,
    "address": "Ermita, Manila",
    "province": "Metro Manila",
    "barangay": "Ermita",
    "notes": "Jollibee popular branch in Manila"
  },
  {
    "id": 54,
    "name": "Jollibee - Manila Branch 54",
    "category": "Food",
    "lat": 14.6035,
    "lng": 120.9882,
    "address": "Ermita, Manila",
    "province": "Metro Manila",
    "barangay": "Ermita",
    "notes": "Jollibee popular branch in Manila"
  },
  {
    "id": 55,
    "name": "Jollibee - Manila Branch 55",
    "category": "Food",
    "lat": 14.5995,
    "lng": 120.9842,
    "address": "Ermita, Manila",
    "province": "Metro Manila",
    "barangay": "Ermita",
    "notes": "Jollibee popular branch in Manila"
  },
  {
    "id": 56,
    "name": "Jollibee - Manila Branch 56",
    "category": "Food",
    "lat": 14.6005,
    "lng": 120.9852,
    "address": "Ermita, Manila",
    "province": "Metro Manila",
    "barangay": "Ermita",
    "notes": "Jollibee popular branch in Manila"
  },
  {
    "id": 57,
    "name": "Jollibee - Manila Branch 57",
    "category": "Food",
    "lat": 14.601500000000001,
    "lng": 120.9862,
    "address": "Ermita, Manila",
    "province": "Metro Manila",
    "barangay": "Ermita",
    "notes": "Jollibee popular branch in Manila"
  },
  {
    "id": 58,
    "name": "Jollibee - Manila Branch 58",
    "category": "Food",
    "lat": 14.602500000000001,
    "lng": 120.9872,
    "address": "Ermita, Manila",
    "province": "Metro Manila",
    "barangay": "Ermita",
    "notes": "Jollibee popular branch in Manila"
  },
  {
    "id": 59,
    "name": "Jollibee - Manila Branch 59",
    "category": "Food",
    "lat": 14.6035,
    "lng": 120.9882,
    "address": "Ermita, Manila",
    "province": "Metro Manila",
    "barangay": "Ermita",
    "notes": "Jollibee popular branch in Manila"
  },
  {
    "id": 60,
    "name": "Jollibee - Manila Branch 60",
    "category": "Food",
    "lat": 14.5995,
    "lng": 120.9842,
    "address": "Ermita, Manila",
    "province": "Metro Manila",
    "barangay": "Ermita",
    "notes": "Jollibee popular branch in Manila"
  },
  {
    "id": 61,
    "name": "Jollibee - Manila Branch 61",
    "category": "Food",
    "lat": 14.6005,
    "lng": 120.9852,
    "address": "Ermita, Manila",
    "province": "Metro Manila",
    "barangay": "Ermita",
    "notes": "Jollibee popular branch in Manila"
  },
  {
    "id": 62,
    "name": "Jollibee - Manila Branch 62",
    "category": "Food",
    "lat": 14.601500000000001,
    "lng": 120.9862,
    "address": "Ermita, Manila",
    "province": "Metro Manila",
    "barangay": "Ermita",
    "notes": "Jollibee popular branch in Manila"
  },
  {
    "id": 63,
    "name": "Jollibee - Manila Branch 63",
    "category": "Food",
    "lat": 14.602500000000001,
    "lng": 120.9872,
    "address": "Ermita, Manila",
    "province": "Metro Manila",
    "barangay": "Ermita",
    "notes": "Jollibee popular branch in Manila"
  },
  {
    "id": 64,
    "name": "Jollibee - Manila Branch 64",
    "category": "Food",
    "lat": 14.6035,
    "lng": 120.9882,
    "address": "Ermita, Manila",
    "province": "Metro Manila",
    "barangay": "Ermita",
    "notes": "Jollibee popular branch in Manila"
  },
  {
    "id": 65,
    "name": "Jollibee - Manila Branch 65",
    "category": "Food",
    "lat": 14.5995,
    "lng": 120.9842,
    "address": "Ermita, Manila",
    "province": "Metro Manila",
    "barangay": "Ermita",
    "notes": "Jollibee popular branch in Manila"
  },
  {
    "id": 66,
    "name": "Jollibee - Manila Branch 66",
    "category": "Food",
    "lat": 14.6005,
    "lng": 120.9852,
    "address": "Ermita, Manila",
    "province": "Metro Manila",
    "barangay": "Ermita",
    "notes": "Jollibee popular branch in Manila"
  },
  {
    "id": 67,
    "name": "Jollibee - Manila Branch 67",
    "category": "Food",
    "lat": 14.601500000000001,
    "lng": 120.9862,
    "address": "Ermita, Manila",
    "province": "Metro Manila",
    "barangay": "Ermita",
    "notes": "Jollibee popular branch in Manila"
  },
  {
    "id": 68,
    "name": "Jollibee - Manila Branch 68",
    "category": "Food",
    "lat": 14.602500000000001,
    "lng": 120.9872,
    "address": "Ermita, Manila",
    "province": "Metro Manila",
    "barangay": "Ermita",
    "notes": "Jollibee popular branch in Manila"
  },
  {
    "id": 69,
    "name": "Jollibee - Manila Branch 69",
    "category": "Food",
    "lat": 14.6035,
    "lng": 120.9882,
    "address": "Ermita, Manila",
    "province": "Metro Manila",
    "barangay": "Ermita",
    "notes": "Jollibee popular branch in Manila"
  },
  {
    "id": 70,
    "name": "Jollibee - Manila Branch 70",
    "category": "Food",
    "lat": 14.5995,
    "lng": 120.9842,
    "address": "Ermita, Manila",
    "province": "Metro Manila",
    "barangay": "Ermita",
    "notes": "Jollibee popular branch in Manila"
  },
  {
    "id": 71,
    "name": "Jollibee - Manila Branch 71",
    "category": "Food",
    "lat": 14.6005,
    "lng": 120.9852,
    "address": "Ermita, Manila",
    "province": "Metro Manila",
    "barangay": "Ermita",
    "notes": "Jollibee popular branch in Manila"
  },
  {
    "id": 72,
    "name": "Jollibee - Manila Branch 72",
    "category": "Food",
    "lat": 14.601500000000001,
    "lng": 120.9862,
    "address": "Ermita, Manila",
    "province": "Metro Manila",
    "barangay": "Ermita",
    "notes": "Jollibee popular branch in Manila"
  },
  {
    "id": 73,
    "name": "Jollibee - Manila Branch 73",
    "category": "Food",
    "lat": 14.602500000000001,
    "lng": 120.9872,
    "address": "Ermita, Manila",
    "province": "Metro Manila",
    "barangay": "Ermita",
    "notes": "Jollibee popular branch in Manila"
  },
  {
    "id": 74,
    "name": "Jollibee - Manila Branch 74",
    "category": "Food",
    "lat": 14.6035,
    "lng": 120.9882,
    "address": "Ermita, Manila",
    "province": "Metro Manila",
    "barangay": "Ermita",
    "notes": "Jollibee popular branch in Manila"
  },
  {
    "id": 75,
    "name": "Jollibee - Manila Branch 75",
    "category": "Food",
    "lat": 14.5995,
    "lng": 120.9842,
    "address": "Ermita, Manila",
    "province": "Metro Manila",
    "barangay": "Ermita",
    "notes": "Jollibee popular branch in Manila"
  },
  {
    "id": 76,
    "name": "Jollibee - Manila Branch 76",
    "category": "Food",
    "lat": 14.6005,
    "lng": 120.9852,
    "address": "Ermita, Manila",
    "province": "Metro Manila",
    "barangay": "Ermita",
    "notes": "Jollibee popular branch in Manila"
  },
  {
    "id": 77,
    "name": "Jollibee - Manila Branch 77",
    "category": "Food",
    "lat": 14.601500000000001,
    "lng": 120.9862,
    "address": "Ermita, Manila",
    "province": "Metro Manila",
    "barangay": "Ermita",
    "notes": "Jollibee popular branch in Manila"
  },
  {
    "id": 78,
    "name": "Jollibee - Manila Branch 78",
    "category": "Food",
    "lat": 14.602500000000001,
    "lng": 120.9872,
    "address": "Ermita, Manila",
    "province": "Metro Manila",
    "barangay": "Ermita",
    "notes": "Jollibee popular branch in Manila"
  },
  {
    "id": 79,
    "name": "Jollibee - Manila Branch 79",
    "category": "Food",
    "lat": 14.6035,
    "lng": 120.9882,
    "address": "Ermita, Manila",
    "province": "Metro Manila",
    "barangay": "Ermita",
    "notes": "Jollibee popular branch in Manila"
  },
  {
    "id": 80,
    "name": "Jollibee - Manila Branch 80",
    "category": "Food",
    "lat": 14.5995,
    "lng": 120.9842,
    "address": "Ermita, Manila",
    "province": "Metro Manila",
    "barangay": "Ermita",
    "notes": "Jollibee popular branch in Manila"
  },
  {
    "id": 81,
    "name": "Jollibee - Manila Branch 81",
    "category": "Food",
    "lat": 14.6005,
    "lng": 120.9852,
    "address": "Ermita, Manila",
    "province": "Metro Manila",
    "barangay": "Ermita",
    "notes": "Jollibee popular branch in Manila"
  },
  {
    "id": 82,
    "name": "Jollibee - Manila Branch 82",
    "category": "Food",
    "lat": 14.601500000000001,
    "lng": 120.9862,
    "address": "Ermita, Manila",
    "province": "Metro Manila",
    "barangay": "Ermita",
    "notes": "Jollibee popular branch in Manila"
  },
  {
    "id": 83,
    "name": "Jollibee - Manila Branch 83",
    "category": "Food",
    "lat": 14.602500000000001,
    "lng": 120.9872,
    "address": "Ermita, Manila",
    "province": "Metro Manila",
    "barangay": "Ermita",
    "notes": "Jollibee popular branch in Manila"
  },
  {
    "id": 84,
    "name": "Jollibee - Manila Branch 84",
    "category": "Food",
    "lat": 14.6035,
    "lng": 120.9882,
    "address": "Ermita, Manila",
    "province": "Metro Manila",
    "barangay": "Ermita",
    "notes": "Jollibee popular branch in Manila"
  },
  {
    "id": 85,
    "name": "Jollibee - Manila Branch 85",
    "category": "Food",
    "lat": 14.5995,
    "lng": 120.9842,
    "address": "Ermita, Manila",
    "province": "Metro Manila",
    "barangay": "Ermita",
    "notes": "Jollibee popular branch in Manila"
  },
  {
    "id": 86,
    "name": "Jollibee - Manila Branch 86",
    "category": "Food",
    "lat": 14.6005,
    "lng": 120.9852,
    "address": "Ermita, Manila",
    "province": "Metro Manila",
    "barangay": "Ermita",
    "notes": "Jollibee popular branch in Manila"
  },
  {
    "id": 87,
    "name": "Jollibee - Manila Branch 87",
    "category": "Food",
    "lat": 14.601500000000001,
    "lng": 120.9862,
    "address": "Ermita, Manila",
    "province": "Metro Manila",
    "barangay": "Ermita",
    "notes": "Jollibee popular branch in Manila"
  },
  {
    "id": 88,
    "name": "Jollibee - Manila Branch 88",
    "category": "Food",
    "lat": 14.602500000000001,
    "lng": 120.9872,
    "address": "Ermita, Manila",
    "province": "Metro Manila",
    "barangay": "Ermita",
    "notes": "Jollibee popular branch in Manila"
  },
  {
    "id": 89,
    "name": "Jollibee - Manila Branch 89",
    "category": "Food",
    "lat": 14.6035,
    "lng": 120.9882,
    "address": "Ermita, Manila",
    "province": "Metro Manila",
    "barangay": "Ermita",
    "notes": "Jollibee popular branch in Manila"
  },
  {
    "id": 90,
    "name": "Jollibee - Manila Branch 90",
    "category": "Food",
    "lat": 14.5995,
    "lng": 120.9842,
    "address": "Ermita, Manila",
    "province": "Metro Manila",
    "barangay": "Ermita",
    "notes": "Jollibee popular branch in Manila"
  },
  {
    "id": 91,
    "name": "Jollibee - Manila Branch 91",
    "category": "Food",
    "lat": 14.6005,
    "lng": 120.9852,
    "address": "Ermita, Manila",
    "province": "Metro Manila",
    "barangay": "Ermita",
    "notes": "Jollibee popular branch in Manila"
  },
  {
    "id": 92,
    "name": "Jollibee - Manila Branch 92",
    "category": "Food",
    "lat": 14.601500000000001,
    "lng": 120.9862,
    "address": "Ermita, Manila",
    "province": "Metro Manila",
    "barangay": "Ermita",
    "notes": "Jollibee popular branch in Manila"
  },
  {
    "id": 93,
    "name": "Jollibee - Manila Branch 93",
    "category": "Food",
    "lat": 14.602500000000001,
    "lng": 120.9872,
    "address": "Ermita, Manila",
    "province": "Metro Manila",
    "barangay": "Ermita",
    "notes": "Jollibee popular branch in Manila"
  },
  {
    "id": 94,
    "name": "Jollibee - Manila Branch 94",
    "category": "Food",
    "lat": 14.6035,
    "lng": 120.9882,
    "address": "Ermita, Manila",
    "province": "Metro Manila",
    "barangay": "Ermita",
    "notes": "Jollibee popular branch in Manila"
  },
  {
    "id": 95,
    "name": "Jollibee - Manila Branch 95",
    "category": "Food",
    "lat": 14.5995,
    "lng": 120.9842,
    "address": "Ermita, Manila",
    "province": "Metro Manila",
    "barangay": "Ermita",
    "notes": "Jollibee popular branch in Manila"
  },
  {
    "id": 96,
    "name": "Jollibee - Manila Branch 96",
    "category": "Food",
    "lat": 14.6005,
    "lng": 120.9852,
    "address": "Ermita, Manila",
    "province": "Metro Manila",
    "barangay": "Ermita",
    "notes": "Jollibee popular branch in Manila"
  },
  {
    "id": 97,
    "name": "Jollibee - Manila Branch 97",
    "category": "Food",
    "lat": 14.601500000000001,
    "lng": 120.9862,
    "address": "Ermita, Manila",
    "province": "Metro Manila",
    "barangay": "Ermita",
    "notes": "Jollibee popular branch in Manila"
  },
  {
    "id": 98,
    "name": "Jollibee - Manila Branch 98",
    "category": "Food",
    "lat": 14.602500000000001,
    "lng": 120.9872,
    "address": "Ermita, Manila",
    "province": "Metro Manila",
    "barangay": "Ermita",
    "notes": "Jollibee popular branch in Manila"
  },
  {
    "id": 99,
    "name": "Jollibee - Manila Branch 99",
    "category": "Food",
    "lat": 14.6035,
    "lng": 120.9882,
    "address": "Ermita, Manila",
    "province": "Metro Manila",
    "barangay": "Ermita",
    "notes": "Jollibee popular branch in Manila"
  },
  {
    "id": 100,
    "name": "Jollibee - Manila Branch 100",
    "category": "Food",
    "lat": 14.5995,
    "lng": 120.9842,
    "address": "Ermita, Manila",
    "province": "Metro Manila",
    "barangay": "Ermita",
    "notes": "Jollibee popular branch in Manila"
  },
  {
    "id": 101,
    "name": "Jollibee - Manila Branch 101",
    "category": "Food",
    "lat": 14.6005,
    "lng": 120.9852,
    "address": "Ermita, Manila",
    "province": "Metro Manila",
    "barangay": "Ermita",
    "notes": "Jollibee popular branch in Manila"
  },
  {
    "id": 102,
    "name": "Jollibee - Manila Branch 102",
    "category": "Food",
    "lat": 14.601500000000001,
    "lng": 120.9862,
    "address": "Ermita, Manila",
    "province": "Metro Manila",
    "barangay": "Ermita",
    "notes": "Jollibee popular branch in Manila"
  },
  {
    "id": 103,
    "name": "Jollibee - Manila Branch 103",
    "category": "Food",
    "lat": 14.602500000000001,
    "lng": 120.9872,
    "address": "Ermita, Manila",
    "province": "Metro Manila",
    "barangay": "Ermita",
    "notes": "Jollibee popular branch in Manila"
  },
  {
    "id": 104,
    "name": "Jollibee - Manila Branch 104",
    "category": "Food",
    "lat": 14.6035,
    "lng": 120.9882,
    "address": "Ermita, Manila",
    "province": "Metro Manila",
    "barangay": "Ermita",
    "notes": "Jollibee popular branch in Manila"
  },
  {
    "id": 105,
    "name": "Jollibee - Manila Branch 105",
    "category": "Food",
    "lat": 14.5995,
    "lng": 120.9842,
    "address": "Ermita, Manila",
    "province": "Metro Manila",
    "barangay": "Ermita",
    "notes": "Jollibee popular branch in Manila"
  },
  {
    "id": 106,
    "name": "Jollibee - Manila Branch 106",
    "category": "Food",
    "lat": 14.6005,
    "lng": 120.9852,
    "address": "Ermita, Manila",
    "province": "Metro Manila",
    "barangay": "Ermita",
    "notes": "Jollibee popular branch in Manila"
  },
  {
    "id": 107,
    "name": "Jollibee - Manila Branch 107",
    "category": "Food",
    "lat": 14.601500000000001,
    "lng": 120.9862,
    "address": "Ermita, Manila",
    "province": "Metro Manila",
    "barangay": "Ermita",
    "notes": "Jollibee popular branch in Manila"
  },
  {
    "id": 108,
    "name": "Jollibee - Manila Branch 108",
    "category": "Food",
    "lat": 14.602500000000001,
    "lng": 120.9872,
    "address": "Ermita, Manila",
    "province": "Metro Manila",
    "barangay": "Ermita",
    "notes": "Jollibee popular branch in Manila"
  },
  {
    "id": 109,
    "name": "Jollibee - Manila Branch 109",
    "category": "Food",
    "lat": 14.6035,
    "lng": 120.9882,
    "address": "Ermita, Manila",
    "province": "Metro Manila",
    "barangay": "Ermita",
    "notes": "Jollibee popular branch in Manila"
  },
  {
    "id": 110,
    "name": "Jollibee - Manila Branch 110",
    "category": "Food",
    "lat": 14.5995,
    "lng": 120.9842,
    "address": "Ermita, Manila",
    "province": "Metro Manila",
    "barangay": "Ermita",
    "notes": "Jollibee popular branch in Manila"
  },
  {
    "id": 111,
    "name": "Jollibee - Manila Branch 111",
    "category": "Food",
    "lat": 14.6005,
    "lng": 120.9852,
    "address": "Ermita, Manila",
    "province": "Metro Manila",
    "barangay": "Ermita",
    "notes": "Jollibee popular branch in Manila"
  },
  {
    "id": 112,
    "name": "Jollibee - Manila Branch 112",
    "category": "Food",
    "lat": 14.601500000000001,
    "lng": 120.9862,
    "address": "Ermita, Manila",
    "province": "Metro Manila",
    "barangay": "Ermita",
    "notes": "Jollibee popular branch in Manila"
  },
  {
    "id": 113,
    "name": "Jollibee - Manila Branch 113",
    "category": "Food",
    "lat": 14.602500000000001,
    "lng": 120.9872,
    "address": "Ermita, Manila",
    "province": "Metro Manila",
    "barangay": "Ermita",
    "notes": "Jollibee popular branch in Manila"
  },
  {
    "id": 114,
    "name": "Jollibee - Manila Branch 114",
    "category": "Food",
    "lat": 14.6035,
    "lng": 120.9882,
    "address": "Ermita, Manila",
    "province": "Metro Manila",
    "barangay": "Ermita",
    "notes": "Jollibee popular branch in Manila"
  },
  {
    "id": 115,
    "name": "Jollibee - Manila Branch 115",
    "category": "Food",
    "lat": 14.5995,
    "lng": 120.9842,
    "address": "Ermita, Manila",
    "province": "Metro Manila",
    "barangay": "Ermita",
    "notes": "Jollibee popular branch in Manila"
  },
  {
    "id": 116,
    "name": "Jollibee - Manila Branch 116",
    "category": "Food",
    "lat": 14.6005,
    "lng": 120.9852,
    "address": "Ermita, Manila",
    "province": "Metro Manila",
    "barangay": "Ermita",
    "notes": "Jollibee popular branch in Manila"
  },
  {
    "id": 117,
    "name": "Jollibee - Manila Branch 117",
    "category": "Food",
    "lat": 14.601500000000001,
    "lng": 120.9862,
    "address": "Ermita, Manila",
    "province": "Metro Manila",
    "barangay": "Ermita",
    "notes": "Jollibee popular branch in Manila"
  },
  {
    "id": 118,
    "name": "Jollibee - Manila Branch 118",
    "category": "Food",
    "lat": 14.602500000000001,
    "lng": 120.9872,
    "address": "Ermita, Manila",
    "province": "Metro Manila",
    "barangay": "Ermita",
    "notes": "Jollibee popular branch in Manila"
  },
  {
    "id": 119,
    "name": "Jollibee - Manila Branch 119",
    "category": "Food",
    "lat": 14.6035,
    "lng": 120.9882,
    "address": "Ermita, Manila",
    "province": "Metro Manila",
    "barangay": "Ermita",
    "notes": "Jollibee popular branch in Manila"
  },
  {
    "id": 120,
    "name": "Jollibee - Manila Branch 120",
    "category": "Food",
    "lat": 14.5995,
    "lng": 120.9842,
    "address": "Ermita, Manila",
    "province": "Metro Manila",
    "barangay": "Ermita",
    "notes": "Jollibee popular branch in Manila"
  }
]